
[
  {
        "key": "BI",
        "latitude": -23.510002264875915,
        "longitude": -46.90824133414107,
        "name": "Barueri"
  },
  {
        "key": "AL",
        "latitude": 32.7990,
        "longitude": -86.8073,
        "name": "Alabama"
  },
  {
        "key": "AR",
        "latitude": 34.9513,
        "longitude": -92.3809,
        "name": "Arkansas"
  },
  {
        "key": "AS",
        "latitude": 14.2417,
        "longitude": -170.7197,
        "name": "American Samoa"
  },
  {
        "key": "AZ",
        "latitude": 33.7712,
        "longitude": -111.3877,
        "name": "Arizona"
  },
  {
        "key": "CA",
        "latitude": 36.1700,
        "longitude": -119.7462,
        "name": "California"
  },
  {
        "key": "CO",
        "latitude": 39.0646,
        "longitude": -105.3272,
        "name": "Colorado"
  },
  {

]
